City_ID,City,Lat,Lng,Max Temp,Humidity,Cloudiness,Wind Speed,Country,Date
0,urangan,-25.3,152.9,30.67,72,5,2.24,AU,1706916896
1,albany,42.6001,-73.9662,1.72,79,91,0.45,US,1706916896
2,west island,-12.1568,96.8225,27.99,83,40,4.63,CC,1706916812
3,gadzhiyevo,69.2551,33.3362,-10.54,91,66,6.1,RU,1706916897
4,labrador city,52.9463,-66.9114,-23.05,68,0,1.03,CA,1706916897
5,port-aux-francais,-49.35,70.2167,7.15,92,52,6.98,TF,1706916897
6,longyearbyen,78.2186,15.6401,-12.09,79,75,3.6,SJ,1706916897
7,charters towers,-20.1,146.2667,29.36,61,99,3.76,AU,1706916897
8,vorgashor,67.5833,63.95,-15.7,90,97,4.02,RU,1706916897
9,grytviken,-54.2811,-36.5092,7.37,86,99,6.67,GS,1706916897
10,hastings,50.8552,0.5729,12.21,42,100,6.96,GB,1706916898
11,ormond-by-the-sea,29.3491,-81.0665,20.03,56,0,2.57,US,1706916898
12,barra,-11.0894,-43.1417,25.72,74,93,1.35,BR,1706916898
13,rechka-vydrino,51.485,104.8461,-18.03,96,69,2.82,RU,1706916898
14,bethel,41.3712,-73.414,5.17,77,100,3.09,US,1706916898
15,unai,-16.3575,-46.9061,22.73,89,100,0.33,BR,1706916898
16,huarmey,-10.0681,-78.1522,25.19,78,100,3.79,PE,1706916898
17,puerto natales,-51.7236,-72.4875,6.25,92,100,6.15,CL,1706916899
18,utrik,11.2278,169.8474,26.31,86,96,9.71,MH,1706916899
19,nouna,12.7333,-3.8667,25.52,16,96,4.61,BF,1706916899
20,baiti,13.745,-14.7482,28.4,13,1,5.75,SN,1706916899
21,ancaster,43.2257,-79.9767,1.44,73,75,5.66,CA,1706916658
22,muli,2.9167,73.5667,28.08,76,99,5.2,MV,1706916899
23,sur,22.5667,59.5289,22.75,78,5,3.16,OM,1706916899
24,petropavlovsk-kamchatsky,53.0452,158.6483,-19.57,75,0,4.47,RU,1706916900
25,semera,11.501,41.201,21.3,72,55,5.14,ET,1706916900
26,richards bay,-28.783,32.0377,21.48,86,1,3.74,ZA,1706916900
27,stanley,54.868,-1.6985,12.38,82,40,13.38,GB,1706916900
28,invercargill,-46.4,168.35,13.34,67,94,6.26,NZ,1706916900
29,tiksi,71.6872,128.8694,-26.63,100,96,1.54,RU,1706916900
30,ribeira brava,32.65,-17.0667,18.35,66,99,2.27,PT,1706916901
31,margaret river,-33.95,115.0667,18.48,84,95,5.5,AU,1706916901
32,keflavik,64.0049,-22.5624,-1.05,80,75,16.98,IS,1706916901
33,avarua,-21.2078,-159.775,27.03,89,100,1.54,CK,1706916901
34,bilibino,68.0546,166.4372,-26.01,87,45,2.24,RU,1706916901
35,anadyr,64.75,177.4833,-16.72,64,92,11.0,RU,1706916901
36,fale old settlement,-9.3852,-171.2468,29.0,73,98,6.92,TK,1706916901
37,tomatlan,19.9333,-105.25,27.75,46,4,5.27,MX,1706916902
38,college,64.8569,-147.8028,-31.22,70,75,0.0,US,1706916902
39,kruisfontein,-34.0033,24.7314,19.38,77,73,1.83,ZA,1706916902
40,tolanaro,-25.0319,46.9987,24.04,78,75,3.09,MG,1706916902
41,taltal,-25.4,-70.4833,20.11,84,26,1.39,CL,1706916902
42,puerto ayora,-0.7393,-90.3518,25.67,86,99,4.13,EC,1706916902
43,howrah,22.5892,88.3103,19.0,94,0,0.0,IN,1706916903
44,jamestown,42.097,-79.2353,0.77,97,100,4.12,US,1706916835
45,kodiak,57.79,-152.4072,-3.27,63,100,1.54,US,1706916858
46,minas,-34.3759,-55.2377,26.66,43,12,8.8,UY,1706916903
47,waitangi,-43.9535,-176.5597,14.34,95,100,1.79,NZ,1706916903
48,queenstown,-31.8976,26.8753,21.0,70,98,1.75,ZA,1706916611
49,port mathurin,-19.6833,63.4167,26.99,77,49,9.4,MU,1706916904
50,isafjordur,66.0755,-23.124,-4.0,91,85,3.91,IS,1706916904
51,nueva gerona,21.8833,-82.8,21.5,68,22,1.74,CU,1706916904
52,gerash,27.6652,54.1371,5.17,76,2,2.73,IR,1706916639
53,szigetvar,46.0486,17.8055,5.53,81,98,2.54,HU,1706916904
54,yellowknife,62.456,-114.3525,-10.4,96,100,2.06,CA,1706916902
55,saipan,15.1355,145.701,28.39,61,40,9.26,MP,1706916905
56,lebu,-37.6167,-73.65,16.78,89,24,5.06,CL,1706916905
57,arteche,12.2645,125.4048,26.11,87,72,5.46,PH,1706916905
58,cabedelo,-6.9811,-34.8339,27.37,75,91,5.48,BR,1706916846
59,papatowai,-46.5619,169.4708,11.2,80,100,6.48,NZ,1706916905
60,remire-montjoly,4.9167,-52.2667,25.02,88,0,0.51,GF,1706916906
61,suarez,2.954,-76.6964,21.76,99,100,1.13,CO,1706916906
62,kwang binh,17.4833,106.6,21.28,95,19,0.7,VN,1706916906
63,bodo,67.28,14.405,1.08,92,75,7.72,NO,1706916906
64,sampit,-2.5333,112.95,24.54,96,99,1.22,ID,1706916906
65,necochea,-38.5473,-58.7368,33.37,19,92,11.13,AR,1706916906
66,turbat,26.0023,63.044,21.89,86,93,2.8,PK,1706916907
67,magadi,12.9667,77.2333,22.09,85,59,2.21,IN,1706916907
68,esperanza,19.5847,-70.9849,23.32,89,91,1.25,DO,1706916907
69,prince rupert,54.3161,-130.3201,2.83,55,20,7.2,CA,1706916907
70,constantia,44.1833,28.65,0.39,91,86,5.66,RO,1706916907
71,ancud,-41.8697,-73.8203,14.39,81,36,2.77,CL,1706916907
72,concepcion,-36.827,-73.0498,20.89,73,0,8.23,CL,1706916908
73,punta alta,-38.8759,-62.0736,24.19,72,94,5.19,AR,1706916908
74,manay,7.215,126.5397,26.79,77,12,3.88,PH,1706916908
75,kerikeri,-35.2268,173.9474,24.95,70,54,0.89,NZ,1706916908
76,peace river,56.2501,-117.286,0.17,86,100,2.57,CA,1706916881
77,iqaluit,63.7506,-68.5145,-26.15,70,0,5.14,CA,1706916792
78,edinburgh of the seven seas,-37.0676,-12.3116,18.6,89,37,7.54,SH,1706916908
79,wailua homesteads,22.0669,-159.378,25.24,61,20,11.32,US,1706916909
80,crane,31.3974,-102.3501,14.8,46,70,11.43,US,1706916909
81,sitka,57.0531,-135.33,0.94,60,100,4.12,US,1706916909
82,clarence town,-32.5833,151.7833,26.01,54,96,3.33,AU,1706916909
83,belyy yar,53.6039,91.3903,-19.06,92,100,0.0,RU,1706916909
84,bonthe,7.5264,-12.505,25.76,86,29,2.75,SL,1706916909
85,chibougamau,49.9168,-74.3659,-10.21,85,100,0.0,CA,1706916741
86,tvoroyri,61.5556,-6.8111,4.32,76,73,18.68,FO,1706916910
87,kostomuksha,64.571,30.5767,-7.2,92,99,4.47,RU,1706916910
88,obihiro,42.9172,143.2044,-12.33,70,8,1.8,JP,1706916910
89,alofi,-19.0595,-169.9187,28.94,84,100,3.6,NU,1706916910
90,karratha,-20.7377,116.8463,34.1,41,62,5.05,AU,1706916911
91,sola,-13.8833,167.55,27.91,83,100,7.85,VU,1706916911
92,sarykemer,43.0,71.5,-6.29,79,5,1.39,KZ,1706916911
93,peel,-33.3167,149.6333,24.81,59,13,1.61,AU,1706916911
94,qaqortoq,60.7167,-46.0333,-20.69,79,77,3.89,GL,1706916911
95,bridgewater,44.3835,-64.5155,0.82,95,100,2.57,CA,1706916759
96,holyhead,53.3062,-4.6321,11.26,93,20,8.23,GB,1706916912
97,kalmunai,7.4167,81.8167,24.92,86,95,2.18,LK,1706916912
98,kolyvan',55.3053,82.7391,-12.21,94,40,4.86,RU,1706916912
99,bubaque,11.2833,-15.8333,25.79,70,0,4.85,GW,1706916912
100,kenora,49.8167,-94.4337,-2.46,93,100,3.09,CA,1706916913
101,murun-kuren,49.6342,100.1625,-23.29,93,46,0.72,MN,1706916913
102,namtsy,62.7161,129.6658,-40.85,100,93,0.53,RU,1706916913
103,vangaindrano,-23.35,47.6,22.57,88,87,2.77,MG,1706916913
104,al jawf,29.5,38.75,6.84,67,6,2.23,SA,1706916913
105,kingston,17.997,-76.7936,26.53,77,40,5.66,JM,1706916913
106,utete,-7.986,38.758,23.0,99,95,0.64,TZ,1706916913
107,magdagachi,53.45,125.8,-28.93,98,7,1.19,RU,1706916914
108,ushuaia,-54.8,-68.3,4.81,87,100,2.57,AR,1706916914
109,cockburn town,21.4612,-71.1419,22.98,49,40,1.54,TC,1706916914
110,adamstown,-25.066,-130.1015,25.13,80,33,2.85,PN,1706916914
111,lompoc,34.6391,-120.4579,15.43,64,20,5.66,US,1706916914
112,selfoss,63.9331,-20.9971,-2.2,59,98,17.31,IS,1706916914
113,vilyuchinsk,52.9306,158.4028,-18.75,73,13,3.66,RU,1706916915
114,flin flon,54.7682,-101.865,2.91,75,20,2.06,CA,1706916915
115,mokhotlong,-29.2894,29.0675,15.23,71,98,0.15,LS,1706916915
116,mwadui,-3.55,33.6,18.84,89,100,1.65,TZ,1706916915
117,lerwick,60.1545,-1.1494,8.0,77,49,14.39,GB,1706916915
118,bredasdorp,-34.5322,20.0403,20.83,95,27,1.86,ZA,1706916915
119,thompson,55.7435,-97.8558,-0.91,93,20,1.03,CA,1706916916
120,tucuma,-0.1833,-50.05,24.71,92,100,1.58,BR,1706916916
121,nagqu,31.5,92.0,-12.25,32,100,7.07,CN,1706916916
122,cheongju-si,36.6372,127.4897,0.98,80,89,0.51,KR,1706916781
123,hermanus,-34.4187,19.2345,21.56,88,5,3.63,ZA,1706916805
124,matane,48.8286,-67.522,-7.4,91,100,4.6,CA,1706916883
125,xining,36.6167,101.7667,-7.9,94,100,0.77,CN,1706916916
126,blackmans bay,-43.0167,147.3167,19.18,31,1,2.38,AU,1706916917
127,lamas,-6.4167,-76.5333,28.26,95,100,0.88,PE,1706916917
128,ustyuzhna,58.8394,36.4321,-8.12,90,97,4.96,RU,1706916917
129,coquimbo,-29.9533,-71.3436,19.85,77,40,3.6,CL,1706916695
130,mala,-12.6581,-76.6308,23.25,88,100,2.69,PE,1706916917
131,kachug,53.9606,105.8817,-31.05,100,70,0.3,RU,1706916917
132,badger,64.8,-147.5333,-31.27,68,40,0.0,US,1706916868
133,kone,-21.0595,164.8658,31.72,66,100,2.85,NC,1706916918
134,trail,49.0998,-117.7022,10.54,84,100,0.8,CA,1706916904
135,cole harbour,44.6724,-63.4751,0.71,95,100,4.02,CA,1706916918
136,olonkinbyen,70.9221,-8.7187,-4.73,66,100,10.39,SJ,1706916918
137,fort st. john,56.2499,-120.8529,2.94,75,20,3.6,CA,1706916918
138,huangzhou,30.45,114.8,0.48,97,100,2.95,CN,1706916918
139,punta arenas,-53.15,-70.9167,4.06,93,100,8.23,CL,1706916919
140,balabac,7.9868,117.0645,27.25,76,97,5.38,PH,1706916919
141,atafu village,-8.5421,-172.5159,28.85,74,99,5.32,TK,1706916919
142,pacasmayo,-7.4006,-79.5714,25.59,73,63,5.2,PE,1706916919
143,pierre,44.3683,-100.351,1.59,96,100,7.72,US,1706916919
144,novaya igirma,57.1334,103.9112,-31.53,100,92,0.74,RU,1706916920
145,ar ruways,24.1103,52.7306,16.86,58,23,8.88,AE,1706916920
146,ascencion,31.1,-107.9833,9.83,48,76,12.28,MX,1706916920
147,yuci,37.6803,112.7319,-3.14,74,20,3.0,CN,1706916920
148,gisborne,-38.6533,178.0042,22.01,45,49,7.14,NZ,1706916920
149,al ghayzah,16.2079,52.176,24.44,76,29,1.47,YE,1706916920
150,harper,4.375,-7.7169,27.22,84,9,3.26,LR,1706916921
151,nelamangala,13.1022,77.39,22.01,90,42,3.39,IN,1706916921
152,hithadhoo,-0.6,73.0833,28.53,73,17,3.92,MV,1706916921
153,ribeira grande,38.5167,-28.7,17.1,89,77,1.79,PT,1706916921
154,hawaiian paradise park,19.5933,-154.9731,23.83,94,100,7.2,US,1706916921
155,villa mercedes,-33.6757,-65.4578,32.63,21,2,4.03,AR,1706916921
156,tapiramuta,-11.8472,-40.7914,19.35,89,86,1.6,BR,1706916921
157,istgah-e rah ahan-e garmsar,35.2346,52.3094,1.27,60,96,2.53,IR,1706916922
158,cannonvale,-20.2833,148.7,29.66,61,100,0.85,AU,1706916922
159,hatillo,18.4863,-66.8254,24.5,83,63,2.71,PR,1706916922
160,ilulissat,69.2167,-51.1,-20.99,59,40,6.17,GL,1706916922
161,prince albert,53.2001,-105.7677,1.97,87,100,3.6,CA,1706916912
162,trapani,37.8333,12.6667,10.15,93,0,1.03,IT,1706916923
163,nemuro,43.3236,145.575,-8.2,66,90,8.94,JP,1706916923
164,pitimbu,-7.4706,-34.8086,27.33,74,92,5.18,BR,1706916923
165,beloyarskiy,63.7119,66.6722,-18.89,97,99,2.24,RU,1706916923
166,mejit,10.2753,170.8646,26.45,85,75,10.48,MH,1706916923
167,port saint john's,-31.6229,29.5448,22.85,87,99,5.2,ZA,1706916923
168,conde,-7.2597,-34.9075,26.7,89,0,3.09,BR,1706916923
169,filadelfia,39.9523,-75.1638,7.25,74,100,7.72,US,1706916853
170,udachny,66.4167,112.4,-31.58,77,55,1.27,RU,1706916924
171,antofagasta,-23.65,-70.4,22.6,80,21,1.67,CL,1706916924
172,port lincoln,-34.7333,135.8667,23.74,59,0,2.23,AU,1706916924
173,lakatoro,-16.0999,167.4164,26.52,90,99,5.2,VU,1706916924
174,nuuk,64.1835,-51.7216,-14.66,61,75,4.12,GL,1706916711
175,guerrero negro,27.9769,-114.0611,17.49,58,0,8.8,MX,1706916849
176,salalah,17.0151,54.0924,25.05,83,75,1.03,OM,1706916925
177,mastic beach,40.7668,-72.8521,5.99,83,96,2.68,US,1706916925
178,kristiansund,63.1115,7.732,8.03,76,75,13.89,NO,1706916925
179,north bend,43.4065,-124.2243,10.13,93,75,5.66,US,1706916925
180,georgetown,5.4112,100.3354,26.96,89,20,1.54,MY,1706916925
181,bikenibeu village,1.3673,173.1241,30.98,79,20,4.12,KI,1706916925
182,wellington,-41.2866,174.7756,19.48,58,69,8.75,NZ,1706916773
183,holualoa,19.6228,-155.9522,23.91,90,100,10.8,US,1706916926
184,rio brilhante,-21.8019,-54.5464,28.8,33,17,2.99,BR,1706916926
185,santiago de cao,-7.9589,-79.2392,24.07,83,75,4.63,PE,1706916926
186,palopo,-2.9996,120.1921,27.23,79,94,1.25,ID,1706916926
187,tual,-5.6667,132.75,28.35,80,63,7.41,ID,1706916926
188,enewetak,11.3474,162.3373,26.46,85,78,10.36,MH,1706916927
189,port elizabeth,-33.918,25.5701,20.61,94,75,3.6,ZA,1706916748
190,colonia,50.9333,6.95,9.12,87,100,6.69,DE,1706916807
191,saint-joseph,-21.3667,55.6167,23.21,79,36,6.27,RE,1706916927
192,yaren,-0.5472,166.916,29.41,74,91,5.66,NR,1706916927
193,sinabang,2.4803,96.3801,26.29,79,98,1.17,ID,1706916927
194,plainview,40.7765,-73.4673,5.28,84,70,2.24,US,1706916927
195,jianshui,23.6363,102.8264,9.64,71,4,1.62,CN,1706916928
196,longmen,24.9597,118.0889,15.34,85,100,0.85,CN,1706916928
197,gaalkacyo,6.7697,47.4308,21.47,86,65,4.86,SO,1706916928
198,talnakh,69.4865,88.3972,-14.33,95,100,6.52,RU,1706916928
199,newman,37.3138,-121.0208,14.57,72,48,1.79,US,1706916928
200,zawiercie,50.4877,19.4168,4.77,86,100,3.13,PL,1706916929
201,nabire,-3.3667,135.4833,26.64,86,100,0.83,ID,1706916929
202,broome,42.2506,-75.833,2.06,88,100,5.66,US,1706916929
203,zouerate,22.7187,-12.4521,17.19,19,1,4.05,MR,1706916929
204,klyuchi,52.2667,79.1667,-10.44,89,100,5.04,RU,1706916929
205,hibbing,47.4272,-92.9377,0.73,60,0,3.09,US,1706916929
206,enoch,37.7733,-113.0244,3.14,86,75,5.14,US,1706916929
207,karachev,53.1229,34.9852,-3.54,93,83,4.41,RU,1706916930
208,ust'-kut,56.7938,105.7672,-34.2,100,62,0.89,RU,1706916930
209,lazaro cardenas,17.9583,-102.2,26.86,67,0,4.65,MX,1706916903
210,fortuna,40.5982,-124.1573,12.19,84,75,0.89,US,1706916930
211,pleiku,13.9833,108.0,18.83,77,39,1.39,VN,1706916930
212,road town,18.4167,-64.6167,25.05,69,20,2.57,VG,1706916930
213,babayevo,59.3936,35.9371,-8.33,92,94,4.2,RU,1706916931
214,west bay,19.3667,-81.4167,25.04,61,20,3.6,KY,1706916931
215,dunedin,-45.8742,170.5036,12.67,67,94,5.36,NZ,1706916931
216,katsuura,35.1333,140.3,6.64,52,92,6.02,JP,1706916931
217,mount pearl,47.5166,-52.7813,-1.63,82,100,4.12,CA,1706916901
218,okhotsk,59.3833,143.3,-23.92,78,18,7.0,RU,1706916931
219,weno,7.4515,151.8468,28.97,79,100,4.63,FM,1706916931
220,kokshetau,53.2775,69.3883,-8.96,95,98,4.43,KZ,1706916932
221,yanchep,-31.55,115.6833,27.19,53,31,5.36,AU,1706916932
222,nova sintra,14.8667,-24.7167,21.58,69,0,5.36,CV,1706916932
223,marica,-22.9194,-42.8186,25.97,92,100,0.53,BR,1706916826
224,blythe,33.6103,-114.5964,17.4,37,1,4.56,US,1706916932
225,san patricio,28.017,-97.5169,23.05,83,99,7.07,US,1706916932
226,pisco,-13.7,-76.2167,25.03,73,0,10.8,PE,1706916933
227,nema,57.5067,50.5011,-4.49,97,100,2.61,RU,1706916933
228,sisimiut,66.9395,-53.6735,-22.59,95,92,3.61,GL,1706916933
229,luderitz,-26.6481,15.1594,18.86,97,68,2.82,NA,1706916933
230,birobidzhan,48.8,132.95,-26.77,87,5,1.59,RU,1706916933
231,mead,47.7674,-117.3549,8.49,82,100,4.12,US,1706916934
232,dudinka,69.4058,86.1778,-13.51,93,100,10.73,RU,1706916934
233,antsiranana,-12.2787,49.2917,24.82,89,100,1.01,MG,1706916934
234,klungkung,-8.5333,115.4,26.38,80,51,0.4,ID,1706916934
235,palikir - national government center,6.9248,158.1611,29.41,79,75,5.66,FM,1706916934
236,tadine,-21.55,167.8833,28.03,80,100,6.23,NC,1706916934
237,haiku-pauwela,20.9219,-156.3051,21.25,88,100,5.14,US,1706916935
238,aasiaat,68.7098,-52.8699,-25.88,99,100,2.07,GL,1706916935
239,pul-e khumri,35.9446,68.7151,6.61,43,74,2.59,AF,1706916935
240,porvoo,60.3923,25.6651,0.65,98,100,5.94,FI,1706916935
241,asau,46.4333,26.4,-2.49,92,44,3.18,RO,1706916935
242,tura,25.5198,90.2201,11.73,58,0,0.85,IN,1706916935
243,mount pleasant,32.7941,-79.8626,15.61,74,0,0.45,US,1706916936
244,carloforte,39.145,8.3058,12.8,81,9,3.55,IT,1706916936
245,sharjah,25.3573,55.4033,20.16,56,20,6.17,AE,1706916796
246,tuy hoa,13.0833,109.3,21.33,91,43,1.57,VN,1706916842
247,tan-tan,28.438,-11.1032,15.38,57,1,3.08,MA,1706916936
248,uturoa,-16.7333,-151.4333,28.01,74,100,4.94,PF,1706916937
249,i-n-salah,27.1935,2.4607,12.66,25,0,5.78,DZ,1706916937
250,iskateley,67.6803,53.1512,-9.43,90,100,6.71,RU,1706916937
251,geraldton,-28.7667,114.6,23.23,83,26,1.54,AU,1706916937
252,diu,20.7141,70.9822,21.61,48,9,2.75,IN,1706916937
253,pointe-noire,-4.7761,11.8635,26.56,83,95,0.11,CG,1706916937
254,yambio,4.5721,28.3955,20.94,26,6,1.48,SS,1706916937
255,collie,-33.3667,116.15,20.89,67,48,2.87,AU,1706916938
256,gabu,12.2833,-14.2167,24.72,24,0,1.26,GW,1706916938
257,magadan,59.5667,150.8,-20.66,75,100,2.71,RU,1706916938
258,virar,19.4667,72.8,24.05,52,5,2.37,IN,1706916938
259,golhisar,37.1459,29.5088,1.19,74,52,1.22,TR,1706916938
260,ebon,4.582,168.6964,28.13,81,100,9.34,MH,1706916938
261,port alfred,-33.5906,26.891,23.0,91,98,7.41,ZA,1706916939
262,callao,-12.0667,-77.15,25.16,69,40,7.2,PE,1706916939
263,santa ana,33.7456,-117.8678,17.5,61,75,4.63,US,1706916939
264,gornopravdinsk,60.05,69.9,-23.69,100,81,1.68,RU,1706916939
265,fort bragg,35.139,-79.006,15.75,61,63,2.24,US,1706916939
266,luba,3.4568,8.5547,27.27,85,77,2.34,GQ,1706916939
267,yelan',50.949,43.7378,-4.84,95,98,5.65,RU,1706916939
268,rio gallegos,-51.6226,-69.2181,10.03,93,40,7.2,AR,1706916940
269,auki,-8.7676,160.7034,28.7,80,98,2.8,SB,1706916940
270,kidal,18.4411,1.4078,17.78,15,93,5.91,ML,1706916940
271,franceville,-1.6333,13.5836,22.5,92,70,1.27,GA,1706916940
272,tshabong,-26.05,22.45,26.2,34,66,4.15,BW,1706916940
273,nelson bay,-32.7167,152.15,25.61,65,97,4.47,AU,1706916940
274,mil'kovo,55.6078,37.7956,-2.92,89,100,5.42,RU,1706916941
275,laojunmiao,39.8333,97.7333,-10.41,92,100,1.86,CN,1706916941
276,konarka,19.9,86.1167,22.22,81,63,2.68,IN,1706916941
277,el nido,11.1858,119.3956,27.08,75,38,7.67,PH,1706916941
278,darwin,-12.4611,130.8418,29.41,85,75,6.17,AU,1706916941
279,smirnykh,49.75,142.8333,-16.63,83,17,2.27,RU,1706916941
280,cold lake,54.4502,-110.2017,3.97,75,20,3.6,CA,1706916668
281,mianyang,31.4593,104.7542,3.45,83,39,1.06,CN,1706916942
282,paphos,34.7667,32.4167,14.88,58,75,1.03,CY,1706916942
283,comodoro rivadavia,-45.8667,-67.5,23.92,22,40,13.89,AR,1706916835
284,inarajan village,13.2736,144.7484,28.54,75,13,8.82,GU,1706916942
285,sao vicente,-23.9631,-46.3919,25.15,88,100,1.41,BR,1706916942
286,isangel,-19.55,169.2667,30.06,79,75,4.12,VU,1706916854
287,katangi,23.45,79.7833,13.62,64,2,1.73,IN,1706916942
288,vikhorevka,56.1201,101.1636,-22.23,100,84,0.58,RU,1706916943
289,vorkuta,67.5,64.0,-14.99,89,96,3.98,RU,1706916943
290,caico,-6.4583,-37.0978,29.13,56,94,9.31,BR,1706916905
291,juneau,58.3019,-134.4197,-5.33,95,100,0.0,US,1706916943
292,santo antonio,-6.3106,-35.4789,26.28,76,99,4.95,BR,1706916943
293,aykhal,66.0,111.5,-27.51,66,18,1.86,RU,1706916943
294,cururupu,-1.8283,-44.8683,24.79,91,100,1.12,BR,1706916943
295,ormara,25.2088,64.6357,22.95,85,44,4.5,PK,1706916944
296,hadibu,12.65,54.0333,24.43,81,70,2.61,YE,1706916944
297,starobil's'k,49.2783,38.9107,-1.36,88,83,5.11,UA,1706916944
298,carnarvon,-24.8667,113.6333,24.84,80,10,5.69,AU,1706916944
299,bentiu,9.2333,29.8333,21.97,21,30,2.66,SS,1706916944
300,okha,53.5739,142.9478,-20.19,86,100,7.28,RU,1706916944
301,chesma,53.8111,60.6533,-8.43,97,100,1.98,RU,1706916945
302,lodja,-3.4833,23.4333,20.63,96,99,0.37,CD,1706916945
303,yoko,5.5333,12.3167,18.88,30,9,2.12,CM,1706916945
304,minas de marcona,-15.2119,-75.1103,19.29,78,70,4.54,PE,1706916945
305,whitehorse,60.7161,-135.0538,-21.5,48,40,2.57,CA,1706916745
306,irece,-11.3042,-41.8558,21.71,80,92,4.0,BR,1706916945
307,leh,34.1667,77.5833,-13.45,46,93,0.8,IN,1706916945
308,slave lake,55.2834,-114.769,0.99,93,40,2.57,CA,1706916946
309,severo-yeniseyskiy,60.3725,93.0408,-25.79,100,79,1.34,RU,1706916946
310,ta`u,-14.2336,-169.5144,28.22,80,98,7.89,AS,1706916946
311,mcminnville,45.2101,-123.1987,13.71,71,75,3.6,US,1706916946
312,east london,-33.0153,27.9116,23.61,86,99,7.75,ZA,1706916946
313,korla,41.7597,86.1469,-6.29,87,57,3.07,CN,1706916946
314,dryden,49.7833,-92.7503,-0.84,74,20,1.54,CA,1706916947
315,praia da vitoria,38.7333,-27.0667,17.14,88,75,5.63,PT,1706916947
316,port shepstone,-30.7414,30.455,23.08,85,71,9.12,ZA,1706916947
317,vadso,70.0744,29.7487,-4.91,86,100,5.66,NO,1706916947
318,alice springs,-23.7,133.8833,31.79,13,100,2.57,AU,1706916686
319,gracemere,-23.4333,150.45,29.95,58,0,1.03,AU,1706916947
320,new norfolk,-42.7826,147.0587,19.84,27,4,2.49,AU,1706916948
321,cabo san lucas,22.8909,-109.9124,25.17,64,20,9.26,MX,1706916948
322,ust-nera,64.5667,143.2,-30.48,100,100,0.34,RU,1706916948
323,luganville,-15.5333,167.1667,25.85,85,100,2.97,VU,1706916948
324,oppdal,62.5943,9.6912,2.7,82,91,11.15,NO,1706916948
325,afaahiti,-17.75,-149.2833,28.93,72,100,3.46,PF,1706916948
326,dzuunmod,48.2199,97.3744,-19.92,69,99,2.42,MN,1706916948
327,horta,38.5333,-28.6333,16.68,89,81,1.79,PT,1706916949
328,lihue,21.9789,-159.3672,25.58,60,20,11.32,US,1706916949
329,hami,42.8,93.45,-3.24,57,100,3.5,CN,1706916949
330,gulf shores,30.246,-87.7008,16.03,69,0,2.57,US,1706916949
331,taseyevo,57.2169,94.8978,-22.59,99,87,1.34,RU,1706916949
332,mahalapye,-23.1041,26.8142,19.72,66,63,3.6,BW,1706916949
333,ilovlya,49.3033,43.9796,-1.87,85,93,6.4,RU,1706916950
334,nyurba,63.2842,118.3319,-28.2,96,94,2.35,RU,1706916950
335,saposoa,-6.934,-76.7716,25.25,85,97,0.77,PE,1706916950
336,semey,50.4111,80.2275,-12.38,85,77,4.35,KZ,1706916950
337,salinas,36.6777,-121.6555,15.35,65,75,6.17,US,1706916889
338,ibotirama,-12.1853,-43.2206,23.71,84,100,0.73,BR,1706916950
339,kokpekty,48.75,82.4,-19.9,100,85,1.32,KZ,1706916950
340,quatis,-22.4072,-44.2581,20.54,98,100,0.86,BR,1706916951
341,benevides,-1.3614,-48.2447,26.89,98,100,0.5,BR,1706916951
342,kayangel,8.0823,134.7173,27.39,83,94,9.64,PW,1706916951
343,ambon,-3.6954,128.1814,29.08,79,40,1.54,ID,1706916670
344,khovd,48.0056,91.6419,-20.16,95,100,0.68,MN,1706916951
345,puerto baquerizo moreno,-0.9,-89.6,25.66,85,84,5.28,EC,1706916951
346,tete,-16.1564,33.5867,25.05,73,40,2.06,MZ,1706916952
347,pariaman,-0.619,100.12,25.03,92,99,0.71,ID,1706916952
348,puerto deseado,-47.7503,-65.8938,21.85,25,12,17.12,AR,1706916683
349,laascaanood,8.4774,47.3597,20.05,66,48,2.81,SO,1706916952
350,helena valley west central,46.6629,-112.0604,10.49,67,100,0.0,US,1706916952
351,tchintabaraden,15.8969,5.7985,16.38,20,56,4.61,NE,1706916952
352,recani,31.2846,-4.2688,10.46,23,0,1.45,MA,1706916952
353,susuman,62.7833,148.1667,-33.34,100,94,1.34,RU,1706916953
354,tamandare,-8.7597,-35.1047,26.7,73,89,3.77,BR,1706916953
355,omutinskiy,56.4745,67.6709,-21.07,100,100,3.3,RU,1706916953
356,scottburgh,-30.2867,30.7532,22.09,86,17,6.91,ZA,1706916953
357,male,4.1748,73.5089,27.97,83,20,4.63,MV,1706916953
358,uribia,11.7139,-72.266,27.66,70,99,5.46,CO,1706916953
359,gebeit,21.0667,36.3167,10.42,65,52,1.82,SD,1706916953
360,ardmore,34.1743,-97.1436,16.88,86,100,7.2,US,1706916823
361,dawson creek,55.7666,-120.2362,3.8,81,0,1.03,CA,1706916954
362,murghob,38.1702,73.9667,-18.97,62,68,2.32,TJ,1706916954
363,buala,-8.145,159.5921,30.05,72,69,3.0,SB,1706916955
364,acarau,-2.8856,-40.12,27.29,83,42,5.45,BR,1706916955
365,chonchi,-42.6128,-73.8092,17.56,86,93,1.76,CL,1706916955
366,kokstad,-30.5472,29.4241,16.04,91,100,1.76,ZA,1706916955
367,itoman,26.1247,127.6694,21.43,88,20,1.54,JP,1706916955
368,stephenville,32.2207,-98.2023,18.44,85,75,6.17,US,1706916955
369,armacao de buzios,-22.7469,-41.8817,27.03,91,100,0.72,BR,1706916811
370,egersund,58.4513,5.9997,8.94,89,100,9.97,NO,1706916956
371,pacific grove,36.6177,-121.9166,14.27,62,75,5.14,US,1706916705
372,mana,5.6592,-53.7767,24.89,79,100,4.09,GF,1706916956
373,polyarnyy,69.1989,33.4478,-10.09,90,56,6.29,RU,1706916956
374,nizhneangarsk,55.7833,109.55,-22.78,81,34,0.45,RU,1706916956
375,darovskoy,58.77,47.9564,-5.51,96,97,2.89,RU,1706916956
376,santa isabel,-23.3156,-46.2214,20.84,98,99,1.0,BR,1706916956
377,leninskoye,41.7589,69.3864,-5.55,63,43,2.37,KZ,1706916957
378,emerald,-23.5333,148.1667,31.3,59,37,1.53,AU,1706916946
379,kulob,37.9145,69.783,8.42,36,100,4.0,TJ,1706916957
380,tralee,52.2704,-9.7026,11.45,97,100,3.86,IE,1706916903
381,lanzhou,36.0564,103.7922,-3.65,92,100,1.46,CN,1706916957
382,dolni dabnik,43.4,24.4333,1.9,75,20,3.09,BG,1706916957
383,chateaubriant,47.7167,-1.3833,9.84,77,100,2.62,FR,1706916957
384,ocos,14.5094,-92.1933,30.1,67,23,3.38,GT,1706916958
385,nantucket,41.2835,-70.0995,4.08,87,100,6.17,US,1706916692
386,kapuskasing,49.4169,-82.4331,-5.95,86,75,2.57,CA,1706916958
387,hammerfest,70.6634,23.6821,-7.75,93,0,0.51,NO,1706916958
388,novodvinsk,64.4165,40.8122,-7.14,100,98,1.31,RU,1706916958
389,acapulco de juarez,16.8634,-99.8901,28.9,70,40,6.69,MX,1706916956
390,borogontsy,62.6683,131.1683,-41.68,100,62,0.88,RU,1706916959
391,northam,51.0333,-4.2167,11.33,99,100,7.34,GB,1706916959
392,muang phonsavan,19.45,103.2167,13.67,80,0,0.51,LA,1706916959
393,leeton,-34.5667,146.4,26.72,23,0,1.49,AU,1706916959
394,gizo,-8.103,156.8419,28.84,77,100,4.57,SB,1706916959
395,codrington,-38.2667,141.9667,22.34,32,0,3.29,AU,1706916959
396,sorong,-0.8833,131.25,27.86,83,54,6.42,ID,1706916960
397,tommot,58.9564,126.2925,-27.13,99,100,1.08,RU,1706916960
398,rongelap,11.1635,166.8941,26.5,85,100,9.85,MH,1706916960
399,kiunga,-6.1219,141.2906,29.05,76,99,1.5,PG,1706916960
400,tafuna,-14.3358,-170.72,29.97,89,75,5.14,AS,1706916960
401,khandyga,62.6667,135.6,-40.39,100,94,0.9,RU,1706916961
402,banket,-17.3833,30.4,15.82,90,76,2.16,ZW,1706916961
403,shizuishan,39.2333,106.7694,-4.52,80,89,1.36,CN,1706916961
404,arlington heights,42.0884,-87.9806,2.33,87,100,5.14,US,1706916961
405,hyesan-dong,41.3976,128.1787,-14.89,82,84,0.55,KP,1706916961
406,carutapera,-1.195,-46.02,25.15,92,73,2.11,BR,1706916961
407,kataysk,56.289,62.5841,-16.66,97,81,3.21,RU,1706916961
408,inyonga,-6.7167,32.0667,17.9,97,99,0.86,TZ,1706916962
409,yenotayevka,47.2456,47.0281,-0.71,92,100,5.43,RU,1706916962
410,ad dilam,23.9915,47.1627,9.23,31,38,2.72,SA,1706916962
411,andergrove,-21.0833,149.1833,33.14,66,73,0.78,AU,1706916962
412,birjand,32.8663,59.2211,0.26,64,0,2.06,IR,1706916962
413,caluula,11.9661,50.7569,24.83,71,55,2.02,SO,1706916962
414,santa cruz,-17.8,-63.1667,31.03,55,40,4.12,BO,1706916785
415,saynshand,44.8824,110.1163,-27.4,99,24,1.28,MN,1706916963
416,sibut,5.718,19.0739,26.25,24,43,0.45,CF,1706916963
417,batang,-6.4846,110.7083,26.74,86,100,1.82,ID,1706916963
418,jayapura,-2.5333,140.7,26.66,82,99,0.68,ID,1706916963
419,tambura,5.6,27.4667,23.21,18,63,1.98,SS,1706916963
420,the pas,53.8251,-101.2541,2.01,80,0,7.2,CA,1706916964
421,tirmiz,37.2242,67.2783,6.05,75,75,4.12,UZ,1706916964
422,happy valley-goose bay,53.3168,-60.3315,-21.83,59,20,1.03,CA,1706916964
423,valenca do piaui,-6.4075,-41.7456,23.36,90,100,1.06,BR,1706916964
424,kolonia town,6.964,158.206,30.0,79,75,5.66,FM,1706916964
425,freetown,8.484,-13.2299,25.37,85,50,2.59,SL,1706916964
426,sahuayo de morelos,20.0667,-102.7167,22.03,40,1,5.26,MX,1706916965
427,uyuni,-20.4597,-66.825,13.69,47,57,9.76,BO,1706916965
428,ponta delgada,37.7333,-25.6667,18.44,82,20,6.69,PT,1706916965
429,nar'yan-mar,67.6713,53.087,-9.38,90,100,6.71,RU,1706916965
430,jabat,7.75,168.9751,27.6,82,87,9.23,MH,1706916965
431,port hueneme,34.1478,-119.1951,18.08,71,20,9.77,US,1706916965
432,illizi,26.4833,8.4667,8.89,30,0,2.4,DZ,1706916965
433,tazovsky,67.4667,78.7,-11.38,91,100,5.77,RU,1706916966
434,lang suan,9.9456,99.0785,23.65,92,72,0.53,TH,1706916966
435,puerto colombia,10.9878,-74.9547,27.05,87,74,7.76,CO,1706916966
436,saint-philippe,-21.3585,55.7679,23.77,81,68,6.14,RE,1706916966
437,arraial do cabo,-22.9661,-42.0278,26.92,83,75,0.51,BR,1706916966
438,yuzhno-kurilsk,44.0306,145.8556,-8.12,64,100,11.48,RU,1706916967
439,sodra sandby,56.5667,16.6167,8.92,88,100,11.14,SE,1706916967
440,hasaki,35.7333,140.8333,2.94,50,38,6.66,JP,1706916967
441,nikolayevsk-on-amure,53.1406,140.73,-20.99,90,84,2.35,RU,1706916967
442,kloulklubed,7.0419,134.2556,28.28,81,30,8.21,PW,1706916967
443,ghanzi,-21.5667,21.7833,21.01,42,32,3.39,BW,1706916968
444,brisas de zicatela,15.8369,-97.0419,28.29,69,40,3.09,MX,1706916968
445,lucapa,-8.4192,20.7447,17.78,96,100,0.73,AO,1706916968
446,kintampo,8.0563,-1.7306,27.4,20,1,1.33,GH,1706916968
447,vrontados,38.4089,26.1328,10.92,76,20,6.69,GR,1706916968
448,bom jesus,-9.0744,-44.3586,26.26,66,78,0.55,BR,1706916968
449,ust'-ilimsk,58.0006,102.6619,-31.42,100,51,0.89,RU,1706916968
450,sabinas,27.85,-101.1167,28.36,25,62,3.13,MX,1706916781
451,oliver,49.1831,-119.5524,10.14,76,87,2.57,CA,1706916786
452,harnoli,32.2792,71.5539,12.68,39,97,3.58,PK,1706916969
453,karauli,26.5,77.0167,12.13,44,3,2.0,IN,1706916969
454,fada,9.5667,8.3,19.73,25,51,3.31,NG,1706916969
455,harstad,68.799,16.5293,-1.03,95,100,2.24,NO,1706916969
456,touros,-5.1989,-35.4608,27.47,76,17,6.38,BR,1706916970
457,nefta,33.8731,7.8777,13.14,56,98,2.88,TN,1706916970
458,bardai,11.65,7.2333,17.7,19,23,4.99,NG,1706916970
459,puerto armuelles,8.2833,-82.8667,29.49,71,63,1.79,PA,1706916970
460,mazamari,-11.3258,-74.5308,23.52,92,100,1.08,PE,1706916970
461,zhalantun,48.0,122.7167,-24.88,86,4,2.98,CN,1706916971
462,aripuana,-9.1667,-60.6333,23.26,97,88,0.4,BR,1706916971
463,samana,19.2056,-69.3369,22.98,70,90,2.23,DO,1706916971
464,mar del plata,-38.0023,-57.5575,25.85,87,0,9.83,AR,1706916895
465,adam,22.3756,57.5233,19.98,77,3,1.17,OM,1706916971
466,kyren,51.6828,102.1408,-16.14,84,30,0.89,RU,1706916971
467,kimbe,-5.5502,150.1429,29.15,75,100,2.02,PG,1706916971
468,chernomorskoye,45.5039,32.6997,3.71,77,12,6.08,UA,1706916972
469,sault ste. marie,46.5168,-84.3333,0.16,56,0,1.54,CA,1706916852
470,broken hill,-31.95,141.4333,28.41,19,35,3.84,AU,1706916972
471,samal,7.0744,125.7083,25.04,100,20,2.06,PH,1706916972
472,portland,45.5234,-122.6762,13.94,59,75,6.17,US,1706916814
473,arkhangel'sk,64.5401,40.5433,-6.94,100,40,2.0,RU,1706916972
474,priargunsk,50.3691,119.1012,-39.29,100,87,0.83,RU,1706916972
475,tarakan,3.3,117.6333,25.72,94,75,1.03,ID,1706916973
476,dongola,19.1667,30.4833,10.96,35,1,4.93,SD,1706916973
477,najaf,31.9985,44.3398,10.88,45,59,2.42,IQ,1706916973
478,taro,-8.3862,115.28,23.0,84,49,0.68,ID,1706916973
479,wurtulla,-26.7568,153.1256,29.47,77,5,2.24,AU,1706916973
480,kasama,-10.2129,31.1808,16.15,97,100,0.99,ZM,1706916973
481,kozmin wielkopolski,51.8271,17.4539,6.96,86,100,9.57,PL,1706916974
482,saudarkrokur,65.7461,-19.6394,-4.92,71,79,10.43,IS,1706916974
483,hanceville,34.0607,-86.7675,14.95,76,17,1.39,US,1706916974
484,sant'antioco,39.0664,8.4522,10.38,85,10,2.58,IT,1706916974
485,hilo,19.7297,-155.09,23.95,89,100,7.2,US,1706916974
486,okuchi-shinohara,32.0667,130.6167,9.38,89,72,1.39,JP,1706916975
487,saldanha,-33.0117,17.9442,21.03,98,57,2.25,ZA,1706916975
488,san antonio de pale,-1.4014,5.6325,27.94,76,98,2.6,GQ,1706916975
489,kuraymah,18.55,31.85,11.79,31,13,5.35,SD,1706916975
490,mahibadhoo,3.7833,72.9667,28.1,78,100,5.72,MV,1706916975
491,bantogon,6.5333,124.0333,26.52,80,20,0.86,PH,1706916975
492,abepura,-2.6333,140.5833,26.45,83,20,0.51,ID,1706916976
493,kerema,-7.9631,145.7785,28.74,72,100,1.3,PG,1706916976
494,kununurra,-15.7667,128.7333,29.99,74,54,3.09,AU,1706916953
495,mhangura,-16.8939,30.1683,16.58,89,31,1.26,ZW,1706916856
496,calama,-22.4667,-68.9333,23.27,25,0,8.75,CL,1706916807
497,kosmach,48.7509,24.3673,-0.06,77,92,2.74,UA,1706916976
498,tacana,15.2333,-92.0833,13.06,94,74,1.28,GT,1706916977
499,galliano,29.4422,-90.2992,20.0,65,0,2.86,US,1706916977
500,salinopolis,-0.6136,-47.3561,26.18,85,97,3.0,BR,1706916977
501,alesund,62.4723,6.1549,7.96,82,75,11.32,NO,1706916977
502,kabare,-2.4683,28.8242,16.54,94,100,0.41,CD,1706916977
503,hermosillo,29.0667,-110.9667,20.71,38,20,3.58,MX,1706916978
504,vilhena,-12.7406,-60.1458,21.12,98,88,1.5,BR,1706916835
505,humaita,-7.5061,-63.0208,24.17,97,99,1.27,BR,1706916978
506,mount gambier,-37.8333,140.7667,23.38,32,0,2.28,AU,1706916979
507,ljungby,56.8332,13.9408,8.23,91,100,9.33,SE,1706916979
508,porto novo,6.4965,2.6036,28.9,75,27,1.14,BJ,1706916979
509,hamilton,39.1834,-84.5333,6.97,71,0,5.66,US,1706916841
510,gryazovets,58.88,40.2525,-9.34,96,98,2.71,RU,1706916980
511,turkestan,43.3333,68.25,-3.3,60,4,2.77,KZ,1706916980
512,tazacorte,28.629,-17.9293,19.53,36,0,3.6,ES,1706916981
513,brady,31.1352,-99.3351,23.07,72,0,6.69,US,1706916981
514,shimanovsk,52.0,127.7,-23.23,93,5,1.89,RU,1706916981
515,lata,40.1629,-8.3327,9.95,84,41,1.8,PT,1706916981
516,quibdo,5.6947,-76.6611,24.69,96,98,1.27,CO,1706916917
517,santa quiteria,-4.3319,-40.1567,28.3,59,98,3.06,BR,1706916982
518,kaiyuan,23.6977,103.3037,10.04,82,3,2.37,CN,1706916982
519,campbellton,48.0075,-66.6727,-4.75,98,99,0.51,CA,1706916982
520,pelabuhan klang,3.0,101.4,26.11,90,97,1.91,MY,1706916752
521,bayanhongor,46.7167,100.1167,-24.98,71,11,1.83,MN,1706916983
522,bogande,12.9714,-0.1436,22.06,17,51,4.4,BF,1706916983
523,whitecourt,54.1502,-115.6855,6.58,65,75,5.14,CA,1706916984
524,mount isa,-20.7333,139.5,24.87,94,100,7.72,AU,1706916984
525,saint croix,17.7397,-64.7388,25.25,73,0,1.54,VI,1706916984
526,miri,4.4148,114.0089,25.08,100,40,2.57,MY,1706916985
527,robertsport,6.7533,-11.3686,27.19,86,72,4.43,LR,1706916985
528,candi prambanan,-7.75,110.4942,25.0,88,97,2.21,ID,1706916985
529,ende,-8.8432,121.6623,29.11,67,70,0.85,ID,1706916985
530,ulan bator,47.9077,106.8832,-32.93,68,5,0.0,MN,1706916986
531,sassandra,4.95,-6.0833,26.21,93,9,2.13,CI,1706916986
532,alta,69.9689,23.2717,-12.67,83,0,1.54,NO,1706916986
533,high river,50.5834,-113.8687,7.75,75,81,1.36,CA,1706916986
534,guozhen,34.3659,107.359,-2.13,92,100,1.42,CN,1706916986
535,chengde,40.9725,117.9361,-6.08,37,100,0.9,CN,1706916986
536,ghadamis,30.1337,9.5007,10.58,45,83,2.93,LY,1706916987
537,inhambane,-23.865,35.3833,24.12,84,100,2.94,MZ,1706916987
538,stavern,59.0,10.0333,10.66,69,19,14.14,NO,1706916987
539,nouadhibou,20.931,-17.0347,21.99,35,3,2.57,MR,1706916987
540,pechora,65.1472,57.2244,-12.3,86,75,4.47,RU,1706916987
541,chilapa de alvarez,17.6,-99.1667,21.5,59,54,3.54,MX,1706916987
542,senanga,-16.1167,23.2667,20.42,84,82,1.11,ZM,1706916988
543,malango,-2.9627,119.9001,22.9,84,86,0.48,ID,1706916988
544,perelyub,51.8667,50.3667,-1.24,94,100,4.78,RU,1706916988
545,ati,13.2154,18.3353,18.97,17,84,6.75,TD,1706916988
546,eydhafushi,5.1033,73.0708,27.71,77,99,5.23,MV,1706916988
547,bechar,31.6167,-2.2167,7.18,21,0,1.54,DZ,1706916988
548,pilar,-9.5972,-35.9567,25.96,78,99,3.03,BR,1706916988
549,san pedro,14.35,121.0167,26.29,82,20,3.58,PH,1706916940
550,cill airne,52.05,-9.5167,11.48,98,100,2.32,IE,1706916989
551,usinsk,65.9939,57.5281,-11.07,95,75,4.92,RU,1706916989
552,axim,4.8699,-2.2405,26.47,88,5,1.34,GH,1706916989
553,dien bien phu,21.3833,103.0167,12.46,60,0,0.38,VN,1706916989
554,as sulayyil,20.4607,45.5779,15.14,29,0,5.43,SA,1706916990
555,shahrak,34.1074,64.3052,-2.01,92,80,4.67,AF,1706916990
556,alaghsas,17.0187,8.0168,15.8,19,78,7.21,NE,1706916990
557,la passe,45.5549,-0.8967,7.77,91,12,2.8,FR,1706916990
558,rovnoye,50.7765,46.0509,-3.16,84,33,7.45,RU,1706916990
559,yinchuan,38.4681,106.2731,-3.12,88,99,1.94,CN,1706916990
560,nizhniy kuranakh,58.8353,125.4869,-27.97,100,100,1.53,RU,1706916991
561,ierapetra,35.01,25.7353,12.3,61,21,3.58,GR,1706916991
562,sredets,42.3475,27.179,1.06,89,73,1.38,BG,1706916991
